[
  { "name": "Gateway of India", "type": "landmark", "emoji": "📍", "lng": 72.8347, "lat": 18.922, "region": "india", "keywords": ["mumbai", "tourist"] },
  { "name": "Taj Mahal Palace", "type": "hotel", "emoji": "🏨", "lng": 72.8333, "lat": 18.9217, "region": "india", "keywords": ["mumbai", "stay"] },
  { "name": "Indian Oil Colaba Fuel Station", "type": "fuel", "emoji": "⛽", "lng": 72.8311, "lat": 18.9248, "region": "india", "keywords": ["petrol", "gas", "diesel"] },
  { "name": "Tata Power EV Charging Hub", "type": "charging", "emoji": "🔌", "lng": 72.8403, "lat": 18.9355, "region": "india", "keywords": ["ev", "charger"] },
  { "name": "Fortis Hospital Mumbai", "type": "hospital", "emoji": "🏥", "lng": 72.8421, "lat": 19.0596, "region": "india", "keywords": ["emergency", "clinic"] },
  { "name": "Apollo Pharmacy Colaba", "type": "pharmacy", "emoji": "💊", "lng": 72.8338, "lat": 18.9231, "region": "india", "keywords": ["medicine", "chemist"] },
  { "name": "Expressway Food Plaza Lonavala", "type": "rest_area", "emoji": "🛣️", "lng": 73.4201, "lat": 18.7546, "region": "india", "keywords": ["rest", "washroom", "service"] },
  { "name": "Mumbai, India", "type": "city", "emoji": "🏙️", "lng": 72.8777, "lat": 18.9667, "region": "india", "keywords": ["city"] },
  { "name": "Delhi, India", "type": "city", "emoji": "🏙️", "lng": 77.1025, "lat": 28.7041, "region": "india", "keywords": ["city"] },
  { "name": "Bangalore, India", "type": "city", "emoji": "🏙️", "lng": 77.5946, "lat": 12.9716, "region": "india", "keywords": ["city"] },
  { "name": "Pune, India", "type": "city", "emoji": "🏙️", "lng": 73.8567, "lat": 18.5204, "region": "india", "keywords": ["city"] }
]
